FID,wkb_geometry,long,lat,id,playground_id,name,address_description,area,playground_type,age_group,owner,description,link,link_kkdk,graffiti_cleaned
legeplads.1,POINT (12.575818079682959 55.682711143117565),12.57581808,55.68271114,2,7,Legepladsen på Hauser Plads,overfor Hauser Plads 16,Indre By,Legeplads,,Københavns kommune,Godt sted til en legepause på byturen.,http://kk.sites.itera.dk/apps/kk_legepladser_ny/index.asp?mode=detalje&id=57,http://kk.sites.itera.dk/apps/kk_legepladser_ny/index.asp?mode=detalje&id=57,ja
legeplads.2,POINT (12.568528509584322 55.682657692613766),12.56852851,55.68265769,3,8,Legepladsen på Israels Plads,ved Ahlefeldtsgade,Indre By,Legeplads,0-16,Københavns kommune,Legeplads med New Yorker-stemning.,http://kk.sites.itera.dk/apps/kk_legepladser_ny/index.asp?mode=detalje&id=58,http://kk.sites.itera.dk/apps/kk_legepladser_ny/index.asp?mode=detalje&id=58,ja
legeplads.3,POINT (12.582071325958921 55.67876337291623),12.58207133,55.67876337,6,13,Legepladsen på Nikolaj Plads,udfor Nikolaj Plads 5-11,Indre By,Legeplads,0-6,Københavns kommune,Kunstlegeplads på rolig plads ved Strøget.,http://kk.sites.itera.dk/apps/kk_legepladser_ny/index.asp?mode=detalje&id=61,http://kk.sites.itera.dk/apps/kk_legepladser_ny/index.asp?mode=detalje&id=61,ja
legeplads.4,POINT (12.591519460476988 55.69272449969055),12.59151946,55.6927245,4,2,Legepladsen på Kastellet ved Folke Bernadottes Alle/Grønningen,"på Smedelinien ved Gustafkirken, udfor Princessens Bastion",Indre By,Legeplads,0-8,Københavns kommune,Ligger midt i et 350 år gammelt forsvarsanlæg.,http://kk.sites.itera.dk/apps/kk_legepladser_ny/index.asp?mode=detalje&id=59,http://kk.sites.itera.dk/apps/kk_legepladser_ny/index.asp?mode=detalje&id=59,ja
legeplads.5,POINT (12.564772115608362 55.68066374201941),12.56477212,55.68066374,9,11,Legepladsen i Ørstedsparken ved Nørre Farimagsgade,Nørre Farimagsgade 2,Indre By,Bemandet udflugtslegeplads,0-16,Københavns kommune,Kombineret klassisk og elektronisk legeplads.,http://kk.sites.itera.dk/apps/kk_legepladser_ny/index.asp?mode=detalje&id=100,http://kk.sites.itera.dk/apps/kk_legepladser_ny/index.asp?mode=detalje&id=100,ja
legeplads.6,POINT (12.593306248811162 55.66966840696987),12.59330625,55.66966841,12,15,Legepladsen på Christianshavns Vold - Elefantens Bastion,på Elefantens Bastion,Indre By,Bemandet legeplads,0-16,Københavns kommune,Grønne omgivelser og timevis af leg for alle aldre.,http://kk.sites.itera.dk/apps/kk_legepladser_ny/index.asp?mode=detalje&id=99,http://kk.sites.itera.dk/apps/kk_legepladser_ny/index.asp?mode=detalje&id=99,ja
legeplads.7,POINT (12.588997974671496 55.697949603524556),12.58899797,55.6979496,16,1,Legepladsen i Classens Have,adgang fra Classensgade og Arendalsgade,Indre By,Legeplads,0-6,Københavns kommune,Ligger i et frodigt gårdanlæg med offentlig adgang.,http://kk.sites.itera.dk/apps/kk_legepladser_ny/index.asp?mode=detalje&id=68,http://kk.sites.itera.dk/apps/kk_legepladser_ny/index.asp?mode=detalje&id=68,ja
legeplads.8,POINT (12.589685450548627 55.6767238736979),12.58968545,55.67672387,131,53,Havnegades trampolinpromenade,Havnegade,Indre By,Legeplads,Alle,Københavns kommune,Hop i trampolin med havnekig.,http://www.kk.dk/Borger/ByOgTrafik/Anlaegsprojekter/GaderOgVeje/Havnegade.aspx,http://www.kk.dk/Borger/ByOgTrafik/Anlaegsprojekter/GaderOgVeje/Havnegade.aspx,ja
legeplads.9,POINT (12.599770786885514 55.69098047114124),12.59977079,55.69098047,5,3,Legepladsen i Langelinieanlægget,ved Nordre Toldbod,Indre By,Legeplads,0-6,Københavns kommune,Sjov for små pirater.,http://kk.sites.itera.dk/apps/kk_legepladser_ny/index.asp?mode=detalje&id=60,http://kk.sites.itera.dk/apps/kk_legepladser_ny/index.asp?mode=detalje&id=60,ja
legeplads.10,POINT (12.585667360171543 55.687638666832676),12.58566736,55.68763867,1,6,Legepladsen på Gammelvagt,Gammel Vagt 5,Indre By,Legeplads,0-14,Københavns kommune,Masser af leg på hyggelig plads midt i byen.,http://kk.sites.itera.dk/apps/kk_legepladser_ny/index.asp?mode=detalje&id=104,http://kk.sites.itera.dk/apps/kk_legepladser_ny/index.asp?mode=detalje&id=104,ja
legeplads.11,POINT (12.579092466356643 55.690462674122244),12.57909247,55.69046267,10,4,Legepladsen i Østre Anlæg ved Malmøgade,Stockholmsgade 24,Indre By,Legeplads,0-14,Københavns kommune,"Populært, grønt åndehul med kælkebakke",http://kk.sites.itera.dk/apps/kk_legepladser_ny/index.asp?mode=detalje&id=114,http://kk.sites.itera.dk/apps/kk_legepladser_ny/index.asp?mode=detalje&id=114,ja
legeplads.12,POINT (12.588571683898572 55.669599877562),12.58857168,55.66959988,13,14,Legepladsen på Christianshavns Vold - Panterens Bastion,på Panterens Bastion,Indre By,Legeplads,0-6,Københavns kommune,"Fredelig, grøn plet til leg og grill.",http://kk.sites.itera.dk/apps/kk_legepladser_ny/index.asp?mode=detalje&id=65,http://kk.sites.itera.dk/apps/kk_legepladser_ny/index.asp?mode=detalje&id=65,ja
legeplads.13,POINT (12.576065117447301 55.6895346865842),12.57606512,55.68953469,11,5,Legepladsen i Østre Anlæg ved Sølvtorvet,ved Sølvtorvet,Indre By,Legeplads,0-6,Københavns kommune,Kunstlegeplads udformet som dagligstue.,http://kk.sites.itera.dk/apps/kk_legepladser_ny/index.asp?mode=detalje&id=64,http://kk.sites.itera.dk/apps/kk_legepladser_ny/index.asp?mode=detalje&id=64,ja
legeplads.14,POINT (12.566759177606917 55.68243653869809),12.56675918,55.68243654,8,9,Legepladsen i Ørstedsparken ved Nørre Farimagsgade / Ahlefeldtsgade,overfor Ahlefeldtsgade 16,Indre By,Legeplads,0-6,Københavns kommune,Legeplads i forskudte terrasser med cafe ved siden af.,http://kk.sites.itera.dk/apps/kk_legepladser_ny/index.asp?mode=detalje&id=63,http://kk.sites.itera.dk/apps/kk_legepladser_ny/index.asp?mode=detalje&id=63,ja
legeplads.15,POINT (12.591538841767665 55.68153148756668),12.59153884,55.68153149,7,10,Legepladsen på Sankt Annæ Plads,udfor Sankt Annæ Plads 1-13,Indre By,Legeplads,0-6,Københavns kommune,Oplagt til picnic og legepause.,http://kk.sites.itera.dk/apps/kk_legepladser_ny/index.asp?mode=detalje&id=62,http://kk.sites.itera.dk/apps/kk_legepladser_ny/index.asp?mode=detalje&id=62,ja
legeplads.16,POINT (12.562905481227856 55.69944260736451),12.56290548,55.69944261,22,25,Skaterpark i Fælledparken ved Edel Sauntes Alle,sydlige ende af Borgmester Jensens Allé,Østerbro,Udflugtslegeplads,fra 6,Københavns kommune,En af nordens største skaterparker.,http://kk.sites.itera.dk/apps/kk_legepladser_ny/index.asp?mode=detalje&id=73,http://kk.sites.itera.dk/apps/kk_legepladser_ny/index.asp?mode=detalje&id=73,nej
legeplads.17,POINT (12.585142245346393 55.704924006404894),12.58514225,55.70492401,25,23,Legepladsen på Silkeborg Plads,ved Horsensgade,Østerbro,Legeplads,0-8,Københavns kommune,Lokalt mødested for familier med børn.,http://kk.sites.itera.dk/apps/kk_legepladser_ny/index.asp?mode=detalje&id=75,http://kk.sites.itera.dk/apps/kk_legepladser_ny/index.asp?mode=detalje&id=75,ja
legeplads.18,POINT (12.585198177723298 55.700216912888145),12.58519818,55.70021691,24,26,Legepladsen i Livjægergade ved Rosenvængets Alle,Rosenvængets Allé/Livjægergade/Næstvedgade,Østerbro,Legeplads,0-8,Københavns kommune,"Tårne, broer og høje træer i en fredfyldt, grøn krog.",http://kk.sites.itera.dk/apps/kk_legepladser_ny/index.asp?mode=detalje&id=74,http://kk.sites.itera.dk/apps/kk_legepladser_ny/index.asp?mode=detalje&id=74,ja
legeplads.19,POINT (12.564446215704894 55.69546734042892),12.56444622,55.69546734,139,132,Legepladsen i Amorparken,Tagensvej/Nørre Alle,Østerbro,Legeplads,0-4,Københavns kommune,"Lillebitte legeplads med fugleredegynge, borde og bænke.",http://kk.sites.itera.dk/apps/kk_legepladser_ny/index.asp?mode=detalje&id=127,http://kk.sites.itera.dk/apps/kk_legepladser_ny/index.asp?mode=detalje&id=127,ja
legeplads.20,POINT (12.56519613711077 55.71408201739017),12.56519614,55.71408202,261,16,Legepladsen i Kildevældsparken,Vognmandsmarken 69,Østerbro,Bemandet legeplads,0-16,Københavns kommune,Godt gemt perle på Østerbro med aktiviteter året rundt.,http://kk.sites.itera.dk/apps/kk_legepladser_ny/index.asp?mode=detalje&id=96,http://kk.sites.itera.dk/apps/kk_legepladser_ny/index.asp?mode=detalje&id=96,ja
legeplads.21,POINT (12.58324822377863 55.70958992331693),12.58324822,55.70958992,29,18,Legepladsen i Svendborggade,Svendborggade  Nyborggade,Østerbro,Legeplads,0-8,Københavns kommune,Grøn oase med leg og urtebede side om side.,http://kk.sites.itera.dk/apps/kk_legepladser_ny/index.asp?mode=detalje&id=78,http://kk.sites.itera.dk/apps/kk_legepladser_ny/index.asp?mode=detalje&id=78,ja
legeplads.22,POINT (12.572648903988615 55.70599367261477),12.5726489,55.70599367,21,21,Legepladsen i Fælledparken ved Serridslevvej syd,Borgmester Jensens Allé/Serridslevvej,Østerbro,Legeplads,Alle,Københavns kommune,"God til picnic, petanque og træstubbe-tagfat.",http://kk.sites.itera.dk/apps/kk_legepladser_ny/index.asp?mode=detalje&id=72,http://kk.sites.itera.dk/apps/kk_legepladser_ny/index.asp?mode=detalje&id=72,ja
legeplads.23,POINT (12.571383327641032 55.70671398790202),12.57138333,55.70671399,20,20,Legepladsen i Fælledparken ved Serridslevvej nord,Borgmester Jensens Allé/ Serridslevvej,Østerbro,Legeplads,0-16,Københavns kommune,"God plads, meget leg og nabo til kunstgræsbaner.",http://kk.sites.itera.dk/apps/kk_legepladser_ny/index.asp?mode=detalje&id=71,http://kk.sites.itera.dk/apps/kk_legepladser_ny/index.asp?mode=detalje&id=71,ja
legeplads.24,POINT (12.573532672152567 55.69970561347167),12.57353267,55.69970561,19,27,Sansehaven i Fælledparken,ved indgangen fra Trianglen,Østerbro,Legeplads,Alle,Københavns kommune,"Sansehave, hvor også handicappede kan lege med.",http://kk.sites.itera.dk/apps/kk_legepladser_ny/index.asp?mode=detalje&id=70,http://kk.sites.itera.dk/apps/kk_legepladser_ny/index.asp?mode=detalje&id=70,ja
legeplads.25,POINT (12.568231244619891 55.69336765123823),12.56823124,55.69336765,17,30,Legepladsen i Fredens Park,Fredensgade/Søpassagen,Østerbro,Legeplads,0-14,Københavns kommune,Legeoase ved søerne.,http://kk.sites.itera.dk/apps/kk_legepladser_ny/index.asp?mode=detalje&id=69,http://kk.sites.itera.dk/apps/kk_legepladser_ny/index.asp?mode=detalje&id=69,ja
legeplads.26,POINT (12.581014467682765 55.705167038607755),12.58101447,55.70516704,15,22,Legepladsen på Bopa Plads,Viborggade/Randersgade/Løgstørgade,Østerbro,Legeplads,0-4,Københavns kommune,"""Frugtlegeplads"" på Østerbros hyggeligste cafetorv.",http://kk.sites.itera.dk/apps/kk_legepladser_ny/index.asp?mode=detalje&id=67,http://kk.sites.itera.dk/apps/kk_legepladser_ny/index.asp?mode=detalje&id=67,ja
legeplads.27,POINT (12.582981903473057 55.70666430269874),12.5829819,55.7066643,26,19,Legepladsen på Århus Plads,Århus Plads 2-6,Østerbro,Legeplads,3/14/2015,Københavns kommune,Kæntret sørøverskib med byens stejleste rutsjebane.,http://kk.sites.itera.dk/apps/kk_legepladser_ny/index.asp?mode=detalje&id=76,http://kk.sites.itera.dk/apps/kk_legepladser_ny/index.asp?mode=detalje&id=76,ja
legeplads.28,POINT (12.5704953670613 55.704571406539934),12.57049537,55.70457141,252,24,Trafiklegepladsen i Fælledparken,Gunnar Nu Hansens Plads 10,Østerbro,Bemandet udflugtslegeplads,2/12/2015,Københavns kommune,Københavns sødeste trafikby i ministørrelse.,http://kk.sites.itera.dk/apps/kk_legepladser_ny/index.asp?mode=detalje&id=117,http://kk.sites.itera.dk/apps/kk_legepladser_ny/index.asp?mode=detalje&id=117,ja
legeplads.29,POINT (12.574676649529454 55.711574162843846),12.57467665,55.71157416,28,17,Legepladsen i Musholmgade,Musholmgade Legegade,Østerbro,Legeplads,0-8,Københavns kommune,Sjov grøn legegade.,http://kk.sites.itera.dk/apps/kk_legepladser_ny/index.asp?mode=detalje&id=77,http://kk.sites.itera.dk/apps/kk_legepladser_ny/index.asp?mode=detalje&id=77,ja
legeplads.30,POINT (12.57663648266933 55.69877006840582),12.57663648,55.69877007,255,28,Den indendørs legeplads i Blegdamsremisen,Blegdamsvej 132A,Østerbro,Bemandet legeplads,0-12,Københavns kommune,Københavns tårne i børnestørrelse.,http://kk.sites.itera.dk/apps/kk_legepladser_ny/index.asp?mode=detalje&id=105,http://kk.sites.itera.dk/apps/kk_legepladser_ny/index.asp?mode=detalje&id=105,nej
legeplads.31,POINT (12.556752147725375 55.68658720607631),12.55675215,55.68658721,30,45,Legepladsen på Blågårds Plads,vestlige ende af Blågårds Plads,Nørrebro,Legeplads,1/8/2015,Københavns kommune,Kunstlegeplads med anderledes farver og former.,http://kk.sites.itera.dk/apps/kk_legepladser_ny/index.asp?mode=detalje&id=79,http://kk.sites.itera.dk/apps/kk_legepladser_ny/index.asp?mode=detalje&id=79,ja
legeplads.32,POINT (12.547124583006836 55.696785191089496),12.54712458,55.69678519,35,36,Legepladsen i Allersgade,mellem Allersgade og Thorsgade,Nørrebro,Legeplads,2/8/2015,Københavns kommune,Nok det sted i byen med mest leg pr. m².,http://kk.sites.itera.dk/apps/kk_legepladser_ny/index.asp?mode=detalje&id=25,http://kk.sites.itera.dk/apps/kk_legepladser_ny/index.asp?mode=detalje&id=25,ja
legeplads.33,POINT (12.55685386704315 55.70554090581224),12.55685387,55.70554091,38,32,Legepladsen på Lersø Parkallé,"Ved Gyritegade, udfor Lersø Parkallé 23-57",Nørrebro,Legeplads,3/8/2015,Københavns kommune,Én lang forhindringsbane for mindre børn.,http://kk.sites.itera.dk/apps/kk_legepladser_ny/index.asp?mode=detalje&id=27,http://kk.sites.itera.dk/apps/kk_legepladser_ny/index.asp?mode=detalje&id=27,ja
legeplads.34,POINT (12.550287096759158 55.697063260395076),12.5502871,55.69706326,40,34,Legepladsen i Odinsgade,mellem Jagtvej og Thorsgade,Nørrebro,Legeplads,0-10,Københavns kommune,Ligger ved siden af byens første lommepark.,http://kk.sites.itera.dk/apps/kk_legepladser_ny/index.asp?mode=detalje&id=28,http://kk.sites.itera.dk/apps/kk_legepladser_ny/index.asp?mode=detalje&id=28,ja
legeplads.35,POINT (12.549573868322002 55.68848514686782),12.54957387,55.68848515,266,44,Legepladsen i Hans Tavsens Park øst,Hans Tavsens Gade 40,Nørrebro,Bemandet legeplads,0-14,Københavns kommune,En af Nørrebros hemmelige oaser for børnefamilier.,http://kk.sites.itera.dk/apps/kk_legepladser_ny/index.asp?mode=detalje&id=111,http://kk.sites.itera.dk/apps/kk_legepladser_ny/index.asp?mode=detalje&id=111,ja
legeplads.36,POINT (12.557729407369951 55.692145369286436),12.55772941,55.69214537,207,131,ByOasen i De Gamles By,Møllegade 25 C,Nørrebro,Bemandet legeplads,,Københavns kommune,,http://kk.sites.itera.dk/apps/kk_legepladser_ny/index.asp?mode=detalje&id=135,http://kk.sites.itera.dk/apps/kk_legepladser_ny/index.asp?mode=detalje&id=135,ja
legeplads.37,POINT (12.540400972548996 55.70285496050884),12.54040097,55.70285496,205,167,Legepladsen i Mimersparken,Borgmestervangen 51,Nørrebro,Bemandet legeplads,,Københavns kommune,,http://kk.sites.itera.dk/apps/kk_legepladser_ny/index.asp?mode=detalje&id=134,http://kk.sites.itera.dk/apps/kk_legepladser_ny/index.asp?mode=detalje&id=134,
legeplads.38,POINT (12.535945139346099 55.69548591605524),12.53594514,55.69548592,260,96,Legepladsen på Bispebjerg Parkallé,Hillerødgade 23B,Nørrebro,Bemandet legeplads,0-16,Københavns kommune,Stor bemandet legeplads med weekendåbent.,http://kk.sites.itera.dk/apps/kk_legepladser_ny/index.asp?mode=detalje&id=16,http://kk.sites.itera.dk/apps/kk_legepladser_ny/index.asp?mode=detalje&id=16,ja
legeplads.39,POINT (12.545900391647042 55.689903538618545),12.54590039,55.68990354,259,41,Legepladsen i Hans Tavsens Park vest,Hans Tavsens Gade 40,Nørrebro,Bemandet legeplads,Fra 8,Københavns kommune,Multibanerne til bl.a. tennis og minigolf.,http://kk.sites.itera.dk/apps/kk_legepladser_ny/index.asp?mode=detalje&id=81,http://kk.sites.itera.dk/apps/kk_legepladser_ny/index.asp?mode=detalje&id=81,ja
legeplads.40,POINT (12.542230462831599 55.69461352151691),12.54223046,55.69461352,258,38,Legepladsen i Nørrebroparken,Stefansgade 30,Nørrebro,Bemandet udflugtslegeplads,0-16,Københavns kommune,Kæmpestor flyvemaskine og en strandet hval,http://kk.sites.itera.dk/apps/kk_legepladser_ny/index.asp?mode=detalje&id=112,http://kk.sites.itera.dk/apps/kk_legepladser_ny/index.asp?mode=detalje&id=112,ja
legeplads.41,POINT (12.553696623813654 55.69445108658461),12.55369662,55.69445109,109,39,Legepladsen i Udbygade,Udbygade/Guldbergsgade/Sjællandsgade,Nørrebro,Legeplads,0-6,Københavns kommune,Skæg småbørnslegeplads i flot gammelt byrum.,http://kk.sites.itera.dk/apps/kk_legepladser_ny/index.asp?mode=detalje&id=84,http://kk.sites.itera.dk/apps/kk_legepladser_ny/index.asp?mode=detalje&id=84,ja
legeplads.42,POINT (12.564175051545782 55.689249439074885),12.56417505,55.68924944,108,43,Legepladsen i Sankt Hans Gade,Sankt Hans Gade 3-5,Nørrebro,Legeplads,0-8,Københavns kommune,Blødt bakkelandskab midt på Nørrebro.,http://kk.sites.itera.dk/apps/kk_legepladser_ny/index.asp?mode=detalje&id=83,http://kk.sites.itera.dk/apps/kk_legepladser_ny/index.asp?mode=detalje&id=83,ja
legeplads.43,POINT (12.547996590355758 55.701098624908674),12.54799659,55.70109862,36,33,Legepladsen i Baldersgade,ved Balders Plads,Nørrebro,Legeplads,0-14,Københavns kommune,Kunstlegeplads dekoreret med harlekinmønster.,http://kk.sites.itera.dk/apps/kk_legepladser_ny/index.asp?mode=detalje&id=26,http://kk.sites.itera.dk/apps/kk_legepladser_ny/index.asp?mode=detalje&id=26,ja
legeplads.44,POINT (12.554659629953811 55.687580757898175),12.55465963,55.68758076,135,31,Legepladsen i Folkets Park,Stengade 50,Nørrebro,Legeplads,3/8/2015,Københavns kommune,"Lille, anderledes legeplads med klatrestativ.",http://kk.sites.itera.dk/apps/kk_legepladser_ny/index.asp?mode=detalje&id=128,http://kk.sites.itera.dk/apps/kk_legepladser_ny/index.asp?mode=detalje&id=128,ja
legeplads.45,POINT (12.549543621597836 55.69984766828994),12.54954362,55.69984767,133,130,Legepladsen i BaNanna Park,Nannasgade 6,Nørrebro,Legeplads,0-16,Københavns kommune,"Park med sol, leg og et hav af aktivitetsmuligheder",http://kk.sites.itera.dk/apps/kk_legepladser_ny/index.asp?mode=detalje&id=129,http://kk.sites.itera.dk/apps/kk_legepladser_ny/index.asp?mode=detalje&id=129,ja
legeplads.46,POINT (12.563016021109611 55.68971679774011),12.56301602,55.6897168,107,42,Legepladsen i Ravnsborggade/Sankt Hans Gade,Hjørnet af Ravnsborggade 23/Sankt Hans Gade 13,Nørrebro,Legeplads,Fra 8,Københavns kommune,Skaterlegeplads med indbygget bio.,http://kk.sites.itera.dk/apps/kk_legepladser_ny/index.asp?mode=detalje&id=82,http://kk.sites.itera.dk/apps/kk_legepladser_ny/index.asp?mode=detalje&id=82,ja
legeplads.47,POINT (12.559600420620677 55.68593023261632),12.55960042,55.68593023,267,46,Legepladsen i Wesselsgade,Wesselsgade 12-16,Nørrebro,Bemandet legeplads,0-16,Københavns kommune,Timevis af leg lige ved Søerne.,http://kk.sites.itera.dk/apps/kk_legepladser_ny/index.asp?mode=detalje&id=116,http://kk.sites.itera.dk/apps/kk_legepladser_ny/index.asp?mode=detalje&id=116,ja
legeplads.48,POINT (12.553889238498472 55.6967875592534),12.55388924,55.69678756,31,35,Legepladsen på Guldbergs Plads,mellem Guldbergsgade og Tibirkegade,Nørrebro,Legeplads,2/12/2015,Københavns kommune,Anderledes boltreplads i ét af Nørrebros fine byrum.,http://kk.sites.itera.dk/apps/kk_legepladser_ny/index.asp?mode=detalje&id=80,http://kk.sites.itera.dk/apps/kk_legepladser_ny/index.asp?mode=detalje&id=80,ja
legeplads.49,POINT (12.54488920638666 55.66734011534883),12.54488921,55.66734012,43,51,Legepladsen på Enghave Plads,Enghavevej mellem 42 og 56,Vesterbro-Kongens Enghave,Legeplads,0-16,Københavns kommune,"Skating, boldspil i hjertet af Vesterbros.",http://kk.sites.itera.dk/apps/kk_legepladser_ny/index.asp?mode=detalje&id=42,http://kk.sites.itera.dk/apps/kk_legepladser_ny/index.asp?mode=detalje&id=42,ja
legeplads.50,POINT (12.528628719554291 55.64804145134337),12.52862872,55.64804145,47,55,Legepladsen på Sjælør Boulevard,Sjælør Boulevard ved Mozartsvej,Vesterbro-Kongens Enghave,Legeplads,2/16/2015,Københavns kommune,"Boldbur, grønt og nyt på vej.",http://kk.sites.itera.dk/apps/kk_legepladser_ny/index.asp?mode=detalje&id=44,http://kk.sites.itera.dk/apps/kk_legepladser_ny/index.asp?mode=detalje&id=44,ja
legeplads.51,POINT (12.546407238893112 55.66853954245739),12.54640724,55.66853954,41,49,Legepladsen i Broagergade,Broager Legegade,Vesterbro-Kongens Enghave,Legeplads,0-8,Københavns kommune,Lille vejstykke forvandlet til legeplads.,http://kk.sites.itera.dk/apps/kk_legepladser_ny/index.asp?mode=detalje&id=41,http://kk.sites.itera.dk/apps/kk_legepladser_ny/index.asp?mode=detalje&id=41,ja
legeplads.52,POINT (12.545749615901046 55.66436759967484),12.54574962,55.6643676,112,52,Legepladsen på Sønder Boulevard,Sønder Boulevard ud for nr. 103,Vesterbro-Kongens Enghave,Legeplads,2/10/2015,Københavns kommune,Bountyland for byens små pirater.,http://kk.sites.itera.dk/apps/kk_legepladser_ny/index.asp?mode=detalje&id=125,http://kk.sites.itera.dk/apps/kk_legepladser_ny/index.asp?mode=detalje&id=125,ja
legeplads.53,POINT (12.553802596047547 55.670073686512644),12.5538026,55.67007369,268,48,Legepladsen i Skydebanehaven,Absalonsgade 12,Vesterbro-Kongens Enghave,Bemandet udflugtslegeplads,0-16,Københavns kommune,Kæmpestor legeplads i Vesterbros grønneste oase.,http://kk.sites.itera.dk/apps/kk_legepladser_ny/index.asp?mode=detalje&id=115,http://kk.sites.itera.dk/apps/kk_legepladser_ny/index.asp?mode=detalje&id=115,ja
legeplads.54,POINT (12.55129604512075 55.67139484253948),12.55129605,55.67139484,44,47,Legepladsen i Saxoparken,Mathæusgade,Vesterbro-Kongens Enghave,Legeplads,0-16,Københavns kommune,Legeøer i lille bypark med naturværksted.,http://kk.sites.itera.dk/apps/kk_legepladser_ny/index.asp?mode=detalje&id=43,http://kk.sites.itera.dk/apps/kk_legepladser_ny/index.asp?mode=detalje&id=43,ja
legeplads.55,POINT (12.53248555645397 55.66239023420071),12.53248556,55.66239023,46,54,Legepladsen i Rektorparken,ved Vestre Kirkegårds Allé,Vesterbro-Kongens Enghave,Legeplads,0-8,Københavns kommune,Hyggeligt legested i lille park.,http://kk.sites.itera.dk/apps/kk_legepladser_ny/index.asp?mode=detalje&id=45,http://kk.sites.itera.dk/apps/kk_legepladser_ny/index.asp?mode=detalje&id=45,ja
legeplads.56,POINT (12.498723468560211 55.663769756531806),12.49872347,55.66376976,48,59,Legepladsen på Carl Langes Vej,mellem Eschrichtsvej og Panumsvej,Valby,Legeplads,0-8,Københavns kommune,Farlig trold og junglesti.,http://kk.sites.itera.dk/apps/kk_legepladser_ny/index.asp?mode=detalje&id=46,http://kk.sites.itera.dk/apps/kk_legepladser_ny/index.asp?mode=detalje&id=46,ja
legeplads.57,POINT (12.519144622902296 55.66138416259685),12.51914462,55.66138416,51,61,Legepladsen i Trekronergade,Vigerslev Allé/Trekronergade,Valby,Legeplads,2/8/2015,Københavns kommune,Dækningsgrave forvandlet til legebakker.,http://kk.sites.itera.dk/apps/kk_legepladser_ny/index.asp?mode=detalje&id=49,http://kk.sites.itera.dk/apps/kk_legepladser_ny/index.asp?mode=detalje&id=49,ja
legeplads.58,POINT (12.519701817214463 55.64452321754839),12.51970182,55.64452322,54,69,Naturlegepladsen i Valbyparken,Hammelstrupvej 42,Valby,Bemandet udflugtslegeplads,0-16,Københavns kommune,Byens største og mest besøgte legeplads.,http://kk.sites.itera.dk/apps/kk_legepladser_ny/index.asp?mode=detalje&id=103,http://kk.sites.itera.dk/apps/kk_legepladser_ny/index.asp?mode=detalje&id=103,ja
legeplads.59,POINT (12.50537707717305 55.6594880278113),12.50537708,55.65948803,119,62,Legepladsen på Vilhelm Thomsens Allé,Vilhelm Thomsens Allé 42,Valby,Legeplads,0-14,Københavns kommune,Lokal legeplads i grønne omgivelser.,http://kk.sites.itera.dk/apps/kk_legepladser_ny/index.asp?mode=detalje&id=56,http://kk.sites.itera.dk/apps/kk_legepladser_ny/index.asp?mode=detalje&id=56,ja
legeplads.60,POINT (12.487637109794823 55.65870807422669),12.48763711,55.65870807,110,63,Legepladsen på Lykkebovej,Overfor Højbovej,Valby,Legeplads,3/10/2015,Københavns kommune,Fitness-legeplads for unge.,http://kk.sites.itera.dk/apps/kk_legepladser_ny/index.asp?mode=detalje&id=47,http://kk.sites.itera.dk/apps/kk_legepladser_ny/index.asp?mode=detalje&id=47,ja
legeplads.61,POINT (12.49548052098334 55.645668516569046),12.49548052,55.64566852,58,68,Legepladsen i Vigerslevparken ved Stakhaven,ved Stakhaven,Valby,Legeplads,Fra 3,Københavns kommune,Sjov naturlegeplads med smuk placering.,http://kk.sites.itera.dk/apps/kk_legepladser_ny/index.asp?mode=detalje&id=55,http://kk.sites.itera.dk/apps/kk_legepladser_ny/index.asp?mode=detalje&id=55,ja
legeplads.62,POINT (12.519953797846192 55.64241235411572),12.5199538,55.64241235,52,70,Legepladsen i Valbyparken ved Cafe Rosenhaven,ved Cafe Rosenhaven,Valby,Legeplads,0-8,Københavns kommune,Sjove figurer og lille cafe.,http://kk.sites.itera.dk/apps/kk_legepladser_ny/index.asp?mode=detalje&id=50,http://kk.sites.itera.dk/apps/kk_legepladser_ny/index.asp?mode=detalje&id=50,ja
legeplads.63,POINT (12.479319153231243 55.66669320537018),12.47931915,55.66669321,57,58,Legepladsen i Vigerslevparken ved Engdraget 63,ved Engdraget over for Mellemleddet,Valby,Legeplads,3/8/2015,Københavns kommune,Overraskende legeting midt i frodig park.,http://kk.sites.itera.dk/apps/kk_legepladser_ny/index.asp?mode=detalje&id=54,http://kk.sites.itera.dk/apps/kk_legepladser_ny/index.asp?mode=detalje&id=54,ja
legeplads.64,POINT (12.4783827814227 55.65776748607234),12.47838278,55.65776749,56,64,Legepladsen i Vigerslevparken ved Lykkebovej/Engdals Alle,ved Lykkebovej,Valby,Legeplads,0-8,Københavns kommune,Piratlegeplads for de mindste.,http://kk.sites.itera.dk/apps/kk_legepladser_ny/index.asp?mode=detalje&id=53,http://kk.sites.itera.dk/apps/kk_legepladser_ny/index.asp?mode=detalje&id=53,ja
legeplads.65,POINT (12.486964035802755 55.65695983943322),12.48696404,55.65695984,55,65,Legepladsen på Vigerslev Alle,adgang fra Kærskiftevej 151-159,Valby,Legeplads,0-14,Københavns kommune,Tarzanbane og skjulte labyrinter.,http://kk.sites.itera.dk/apps/kk_legepladser_ny/index.asp?mode=detalje&id=52,http://kk.sites.itera.dk/apps/kk_legepladser_ny/index.asp?mode=detalje&id=52,ja
legeplads.66,POINT (12.520749796348412 55.6402957763925),12.5207498,55.64029578,53,71,Børnenes Årtusindskiftehave i Valbyparken (Kærestehaven),Temahaven: Børnenes Årtusindskiftehave,Valby,Legeplads,6/10/2015,Københavns kommune,Fantasiland skabt af børn for børn.,http://kk.sites.itera.dk/apps/kk_legepladser_ny/index.asp?mode=detalje&id=51,http://kk.sites.itera.dk/apps/kk_legepladser_ny/index.asp?mode=detalje&id=51,ja
legeplads.67,POINT (12.503864778048218 55.66208623457849),12.50386478,55.66208623,50,60,Legepladsen på Steins Plads,mellem Eschrichtsvej og Steinsvej,Valby,Legeplads,3/10/2015,Københavns kommune,Flot plads med asfaltbakker til trickcykling mv.,http://kk.sites.itera.dk/apps/kk_legepladser_ny/index.asp?mode=detalje&id=48,http://kk.sites.itera.dk/apps/kk_legepladser_ny/index.asp?mode=detalje&id=48,ja
legeplads.68,POINT (12.50253304788611 55.64964429523615),12.50253305,55.6496443,49,67,Legepladsen ved Kirsebærhaven,Kirsebærhaven 14,Valby,Legeplads,3/10/2015,Københavns kommune,"Kæmpesnegl, Eiffeltårnsnet og skaterplads.",http://kk.sites.itera.dk/apps/kk_legepladser_ny/index.asp?mode=detalje&id=110,http://kk.sites.itera.dk/apps/kk_legepladser_ny/index.asp?mode=detalje&id=110,ja
legeplads.69,POINT (12.486719059985989 55.692631086122546),12.48671906,55.69263109,65,80,Legepladsen på Jyllingevej,overfor Jermbane Allé,Vanløse,Legeplads,fra 6,Københavns kommune,Skateranlæg for begyndere og let øvede.,http://kk.sites.itera.dk/apps/kk_legepladser_ny/index.asp?mode=detalje&id=37,http://kk.sites.itera.dk/apps/kk_legepladser_ny/index.asp?mode=detalje&id=37,ja
legeplads.70,POINT (12.491533957007828 55.68110056372213),12.49153396,55.68110056,63,83,Legepladsen i Grøndalsparken,overfor Arnestedet,Vanløse,Legeplads,0-14,Københavns kommune,"Dejlig park, keltisk soltempel og sjove trampoliner.",http://kk.sites.itera.dk/apps/kk_legepladser_ny/index.asp?mode=detalje&id=35,http://kk.sites.itera.dk/apps/kk_legepladser_ny/index.asp?mode=detalje&id=35,ja
legeplads.71,POINT (12.464824562812396 55.69629620779727),12.46482456,55.69629621,66,77,Legepladsen i Krogebjergparken,ved Roshagevej,Vanløse,Legeplads,3/10/2015,Københavns kommune,Kæmpegynger og himmelhøjt klatrenet.,http://kk.sites.itera.dk/apps/kk_legepladser_ny/index.asp?mode=detalje&id=38,http://kk.sites.itera.dk/apps/kk_legepladser_ny/index.asp?mode=detalje&id=38,ja
legeplads.72,POINT (12.51904978737781 55.69263507364895),12.51904979,55.69263507,64,79,Legepladsen på Grøndalsvænge Alle,ved Morbærvej,Vanløse,Legeplads,3/10/2015,Københavns kommune,Sand + stammer + sten = timevis af leg.,http://kk.sites.itera.dk/apps/kk_legepladser_ny/index.asp?mode=detalje&id=36,http://kk.sites.itera.dk/apps/kk_legepladser_ny/index.asp?mode=detalje&id=36,ja
legeplads.73,POINT (12.497300974015976 55.69765411793417),12.49730097,55.69765412,71,75,Legepladsen på Fuglsang Alle,overfor Beldringevej,Vanløse,Legeplads,2/8/2015,Københavns kommune,"Skøn, indhegnet legeplads med Tarzan-sti for små og store.",http://kk.sites.itera.dk/apps/kk_legepladser_ny/index.asp?mode=detalje&id=4,http://kk.sites.itera.dk/apps/kk_legepladser_ny/index.asp?mode=detalje&id=4,ja
legeplads.74,POINT (12.512991438697169 55.693321849348216),12.51299144,55.69332185,117,78,Legepladsen på Grøndal Torv,overfor Godthåbsvej 199-203,Vanløse,Legeplads,3/10/2015,Københavns kommune,"Lækkert boldbur, hyggelig leg og flot have.",http://kk.sites.itera.dk/apps/kk_legepladser_ny/index.asp?mode=detalje&id=34,http://kk.sites.itera.dk/apps/kk_legepladser_ny/index.asp?mode=detalje&id=34,ja
legeplads.75,POINT (12.474827766099438 55.69614070740983),12.47482777,55.69614071,257,76,Legepladsen på Nørager Plads,Nørager Plads 23,Vanløse,Bemandet legeplads,0-16,Københavns kommune,Meget populær og med mange aktivitetstilbud.,http://kk.sites.itera.dk/apps/kk_legepladser_ny/index.asp?mode=detalje&id=97,http://kk.sites.itera.dk/apps/kk_legepladser_ny/index.asp?mode=detalje&id=97,ja
legeplads.76,POINT (12.52154415645957 55.698816009057985),12.52154416,55.69881601,62,74,Legepladsen på Genforeningspladsen syd,ved Mågevej,Vanløse,Legeplads,Alle,Københavns kommune,Hyggelig legekrog ved idrætsanlæg og udendørs skøjtebane.,http://kk.sites.itera.dk/apps/kk_legepladser_ny/index.asp?mode=detalje&id=33,http://kk.sites.itera.dk/apps/kk_legepladser_ny/index.asp?mode=detalje&id=33,ja
legeplads.77,POINT (12.495813507339792 55.69218624991743),12.49581351,55.69218625,68,81,Legepladsen på Skibelundvej,Skivelundvej 12,Vanløse,Legeplads,3/14/2015,Københavns kommune,"Snurrestænger, hænge-karussel og sjov rutsjebane.",http://kk.sites.itera.dk/apps/kk_legepladser_ny/index.asp?mode=detalje&id=39,http://kk.sites.itera.dk/apps/kk_legepladser_ny/index.asp?mode=detalje&id=39,ja
legeplads.78,POINT (12.470002297588154 55.68117902829066),12.4700023,55.68117903,59,84,Legepladsen på Damhusengen - Elvergårdsvej,ved Elvergårdsvej,Vanløse,Legeplads,3/10/2015,Københavns kommune,Sjov og anderledes naturlegeplads i flotte omgivelser.,http://kk.sites.itera.dk/apps/kk_legepladser_ny/index.asp?mode=detalje&id=29,http://kk.sites.itera.dk/apps/kk_legepladser_ny/index.asp?mode=detalje&id=29,ja
legeplads.79,POINT (12.470935092687128 55.68718754823909),12.47093509,55.68718755,60,82,Legepladsen på Damhusengen ved Vanløse Byvej,ved Vanløse Byvej,Vanløse,Legeplads,3/10/2015,Københavns kommune,Ligger ved den grønne cykelrute og kan leges på i timevis.,http://kk.sites.itera.dk/apps/kk_legepladser_ny/index.asp?mode=detalje&id=31,http://kk.sites.itera.dk/apps/kk_legepladser_ny/index.asp?mode=detalje&id=31,ja
legeplads.80,POINT (12.517788971867487 55.6997661316007),12.51778897,55.69976613,61,72,Legepladsen på Genforeningspladsen nord,ved Hulgårdsvej 86-90,,,,,,,,
legeplads.81,POINT (12.510704293042325 55.6996843801924),12.51070429,55.69968438,76,73,Naturlegepladsen i Rødkildeparken,ved Hvidkildevej,Vanløse,Legeplads,3/14/2015,Københavns kommune,"Rutsjebane, svævebane og spændende skib.",http://kk.sites.itera.dk/apps/kk_legepladser_ny/index.asp?mode=detalje&id=8,http://kk.sites.itera.dk/apps/kk_legepladser_ny/index.asp?mode=detalje&id=8,ja
legeplads.82,POINT (12.50764014022972 55.70648263822737),12.50764014,55.70648264,69,91,Legepladsen i Brønshøjparken,ved Hyrdevangen,Brønshøj-Husum,Legeplads,0-14,Københavns kommune,"Sjove asfaltlege, fitness og hyggelig park til picnic.",http://kk.sites.itera.dk/apps/kk_legepladser_ny/index.asp?mode=detalje&id=2,http://kk.sites.itera.dk/apps/kk_legepladser_ny/index.asp?mode=detalje&id=2,ja
legeplads.83,POINT (12.481001265456577 55.722700727892104),12.48100127,55.72270073,73,85,Legepladsen i Gyngemosen ved Langhusvej,ved Langhusvej,Brønshøj-Husum,Legeplads,3/14/2015,Københavns kommune,"Godt gemt, og skattejagten værd.",http://kk.sites.itera.dk/apps/kk_legepladser_ny/index.asp?mode=detalje&id=6,http://kk.sites.itera.dk/apps/kk_legepladser_ny/index.asp?mode=detalje&id=6,ja
legeplads.84,POINT (12.470832191278287 55.7040621621094),12.47083219,55.70406216,256,92,Legepladsen i Husumparken,Nordrupvej 16,Brønshøj-Husum,Bemandet legeplads,0-16,Københavns kommune,Afsæt gerne halve eller hele dage til besøget.,http://kk.sites.itera.dk/apps/kk_legepladser_ny/index.asp?mode=detalje&id=107,http://kk.sites.itera.dk/apps/kk_legepladser_ny/index.asp?mode=detalje&id=107,ja
legeplads.85,POINT (12.475971385685183 55.71765570188449),12.47597139,55.7176557,81,86,Legepladsen på Vestvolden ved Bystævnet,ved Bystævnet,Brønshøj-Husum,Legeplads,3/10/2015,Københavns kommune,Her kommer ny legeplads til små røvere og soldater,http://kk.sites.itera.dk/apps/kk_legepladser_ny/index.asp?mode=detalje&id=14,http://kk.sites.itera.dk/apps/kk_legepladser_ny/index.asp?mode=detalje&id=14,ja
legeplads.86,POINT (12.470545798918886 55.71718369217064),12.4705458,55.71718369,82,87,Legepladsen på Vestvolden ved Mørkhøjvej,ved Mørkhøjvej,Brønshøj-Husum,Legeplads,2/10/2015,Københavns kommune,Forhindringsbanen og fitnessredskaberne.,http://kk.sites.itera.dk/apps/kk_legepladser_ny/index.asp?mode=detalje&id=15,http://kk.sites.itera.dk/apps/kk_legepladser_ny/index.asp?mode=detalje&id=15,ja
legeplads.87,POINT (12.487692272849504 55.70932477406744),12.48769227,55.70932477,79,89,Legepladsen i Utterslev Mose ud for Pilesvinget 75,Pilesvinget udfor Hirsevej,Brønshøj-Husum,Legeplads,3/10/2015,Københavns kommune,"Edderkoppen, mega-sneglehuset og en masse grågæs.",http://kk.sites.itera.dk/apps/kk_legepladser_ny/index.asp?mode=detalje&id=11,http://kk.sites.itera.dk/apps/kk_legepladser_ny/index.asp?mode=detalje&id=11,ja
legeplads.88,POINT (12.498376648696631 55.71208196677864),12.49837665,55.71208197,78,88,Legepladsen i Utterslev Mose ved Pilesvinget 5,Pilesvinget mellem Hvedevej og Brønshøj Kirkevej,Brønshøj-Husum,Legeplads,3/12/2015,Københavns kommune,Perfekt til småbørn i pirat-alderen.,http://kk.sites.itera.dk/apps/kk_legepladser_ny/index.asp?mode=detalje&id=10,http://kk.sites.itera.dk/apps/kk_legepladser_ny/index.asp?mode=detalje&id=10,ja
legeplads.89,POINT (12.494263954259736 55.70356412637278),12.49426395,55.70356413,75,94,Legepladsen på Liselundvej,overfor Brønshøjgårdsvej 25,Brønshøj-Husum,Legeplads,3/14/2015,Københavns kommune,Hyggeligt aktivitets- og mødested for unge.,http://kk.sites.itera.dk/apps/kk_legepladser_ny/index.asp?mode=detalje&id=7,http://kk.sites.itera.dk/apps/kk_legepladser_ny/index.asp?mode=detalje&id=7,ja
legeplads.90,POINT (12.469423629532178 55.7079769155617),12.46942363,55.70797692,72,90,Legepladsen på Gislingevej ved Grevingevej,hjørnet af Gislingevej og Grevingevej,Brønshøj-Husum,Legeplads,3/14/2015,Københavns kommune,Stille kvarter og sjove snurrestænger.,http://kk.sites.itera.dk/apps/kk_legepladser_ny/index.asp?mode=detalje&id=5,http://kk.sites.itera.dk/apps/kk_legepladser_ny/index.asp?mode=detalje&id=5,ja
legeplads.91,POINT (12.498815466399273 55.703374348865786),12.49881547,55.70337435,70,93,Legepladsen på Brønshøj Torv,ved Krabbesholmvej,Brønshøj-Husum,Legeplads,0-14,Københavns kommune,"Klatreland, hvor alt hænger sammen i én stor Tarzan-bane.",http://kk.sites.itera.dk/apps/kk_legepladser_ny/index.asp?mode=detalje&id=3,http://kk.sites.itera.dk/apps/kk_legepladser_ny/index.asp?mode=detalje&id=3,ja
legeplads.92,POINT (12.521975800743288 55.70483834694567),12.5219758,55.70483835,253,100,Legepladsen på Hulgårds Plads,Hulgårds Plads 6,Bispebjerg,Bemandet legeplads,0-16,Københavns kommune,En drøm af en legeplads - usynlig fra vejen.,http://kk.sites.itera.dk/apps/kk_legepladser_ny/index.asp?mode=detalje&id=95,http://kk.sites.itera.dk/apps/kk_legepladser_ny/index.asp?mode=detalje&id=95,ja
legeplads.93,POINT (12.516070914824821 55.71344983164293),12.51607091,55.71344983,77,97,Legepladsen i Utterslev Mose ved Engsvinget/Hyrdevangen,Engsvinget overfor Hyrdevangen,Bispebjerg,Legeplads,5/12/2015,Københavns kommune,Kunstlegeplads med byens største legehoved.,http://kk.sites.itera.dk/apps/kk_legepladser_ny/index.asp?mode=detalje&id=9,http://kk.sites.itera.dk/apps/kk_legepladser_ny/index.asp?mode=detalje&id=9,ja
legeplads.94,POINT (12.543114895894476 55.7095397175785),12.5431149,55.70953972,86,99,Legepladsen i Lersøparken,Midt i parken,Bispebjerg,Legeplads,0-12,Københavns kommune,"God til picnic, petanque og træstubbe-tagfat",http://kk.sites.itera.dk/apps/kk_legepladser_ny/index.asp?mode=detalje&id=18,http://kk.sites.itera.dk/apps/kk_legepladser_ny/index.asp?mode=detalje&id=18,ja
legeplads.95,POINT (12.53641274032105 55.701798629439566),12.53641274,55.70179863,134,103,Legepladsen på Alexandravej/Frederikssundsvej,Frederikssundsvej 14C,Bispebjerg,Legeplads,0-6,Københavns kommune,Lokal legeplads med sjov cykelbane.,http://kk.sites.itera.dk/apps/kk_legepladser_ny/index.asp?mode=detalje&id=17,http://kk.sites.itera.dk/apps/kk_legepladser_ny/index.asp?mode=detalje&id=17,ja
legeplads.96,POINT (12.528431156384602 55.72098055865299),12.52843116,55.72098056,80,95,Legepladsen i Utterslev Mose - Ved Vigen,Ved Vigen,Bispebjerg,Legeplads,3/14/2015,Københavns kommune,Perfekt spot til leg og madpakke på turen langs mosen.,http://kk.sites.itera.dk/apps/kk_legepladser_ny/index.asp?mode=detalje&id=12,http://kk.sites.itera.dk/apps/kk_legepladser_ny/index.asp?mode=detalje&id=12,ja
legeplads.97,POINT (12.525099316160091 55.70178333995514),12.52509932,55.70178334,88,101,Legepladsen på Rørsangervej,Rørsangervej 82,Bispebjerg,Legeplads,3/14/2015,Københavns kommune,Gummilegeplads med springvandsmaskine.,http://kk.sites.itera.dk/apps/kk_legepladser_ny/index.asp?mode=detalje&id=21,http://kk.sites.itera.dk/apps/kk_legepladser_ny/index.asp?mode=detalje&id=21,ja
legeplads.98,POINT (12.524891153102583 55.71041332930393),12.52489115,55.71041333,254,98,Legepladsen i Degnestavnen,Degnestavnen 20,Bispebjerg,Bemandet legeplads,0-16,Københavns kommune,Leg i lange baner - og nabo til skøn kælkebakke.,http://kk.sites.itera.dk/apps/kk_legepladser_ny/index.asp?mode=detalje&id=102,http://kk.sites.itera.dk/apps/kk_legepladser_ny/index.asp?mode=detalje&id=102,ja
legeplads.99,POINT (12.532391045068163 55.71996618579737),12.53239105,55.71996619,83,96,Legepladsen på Bispebjerg Parkallé,ved Frederiksborgvej,Bispebjerg,Legeplads,0-14,Københavns kommune,Leg løs og hils på elefanten.,http://kk.sites.itera.dk/apps/kk_legepladser_ny/index.asp?mode=detalje&id=16,http://kk.sites.itera.dk/apps/kk_legepladser_ny/index.asp?mode=detalje&id=16,ja
legeplads.100,POINT (12.530277858349907 55.69762005029972),12.53027786,55.69762005,87,102,Legepladsen på Mejsevænget,Mejsevænget Legegade,Bispebjerg,Legeplads,2/8/2015,Københavns kommune,Lokal legeplads med sjov cykelbane.,http://kk.sites.itera.dk/apps/kk_legepladser_ny/index.asp?mode=detalje&id=19,http://kk.sites.itera.dk/apps/kk_legepladser_ny/index.asp?mode=detalje&id=19,ja
legeplads.101,POINT (12.613807363580765 55.65887191915407),12.61380736,55.65887192,250,108,Byggelegepladsen på Bredegrund,Bredegrund 8,Amager Øst,Bemandet udflugtslegeplads,0-16,Københavns kommune,Den ene af byens to byggelegepladser.,http://kk.sites.itera.dk/apps/kk_legepladser_ny/index.asp?mode=detalje&id=113,http://kk.sites.itera.dk/apps/kk_legepladser_ny/index.asp?mode=detalje&id=113,ja
legeplads.102,POINT (12.613922743316635 55.65522603482767),12.61392274,55.65522603,97,110,Legepladsen på Højdevej,Højdevej/Kirkegårdsvej,Amager Øst,Legeplads,3/10/2015,Københavns kommune,Lokal legeplads til leg og hygge,http://kk.sites.itera.dk/apps/kk_legepladser_ny/index.asp?mode=detalje&id=88,http://kk.sites.itera.dk/apps/kk_legepladser_ny/index.asp?mode=detalje&id=88,ja
legeplads.103,POINT (12.613350131480011 55.66196398285227),12.61335013,55.66196398,118,106,Legepladsen i Moselgade ved Lergravsvej,Moselgade/Lergravsvej,Amager Øst,Legeplads,4/10/2015,Københavns kommune,Haveanlæg med afmærket bane til små cyklister.,http://kk.sites.itera.dk/apps/kk_legepladser_ny/index.asp?mode=detalje&id=118,http://kk.sites.itera.dk/apps/kk_legepladser_ny/index.asp?mode=detalje&id=118,ja
legeplads.104,POINT (12.610558698036915 55.66696564972486),12.6105587,55.66696565,138,104,Aktivitetspladserne på Prags Boulevard,Prags Boulevard - aktivitetspladserne langs parken,Amager Øst,Legeplads,fra 6,Københavns kommune,Anderledes bud på leg og bevægelse i en moderne bypark.,http://kk.sites.itera.dk/apps/kk_legepladser_ny/index.asp?mode=detalje&id=66,http://kk.sites.itera.dk/apps/kk_legepladser_ny/index.asp?mode=detalje&id=66,ja
legeplads.105,POINT (12.607955417697577 55.66640131044762),12.60795542,55.66640131,137,104,Aktivitetspladserne på Prags Boulevard,Prags Boulevard - aktivitetspladserne langs parken,Amager Øst,Legeplads,fra 6,Københavns kommune,Anderledes bud på leg og bevægelse i en moderne bypark.,http://kk.sites.itera.dk/apps/kk_legepladser_ny/index.asp?mode=detalje&id=66,http://kk.sites.itera.dk/apps/kk_legepladser_ny/index.asp?mode=detalje&id=66,ja
legeplads.106,POINT (12.618225536862083 55.654151817755526),12.61822554,55.65415182,265,123,Legepladsen i Sundbyvester Park,Parmagade 45,Amager Øst,Bemandet legeplads,0-16,Københavns kommune,"Soppebassin, miniveje, sjove cykler og byens største airhockey.",http://kk.sites.itera.dk/apps/kk_legepladser_ny/index.asp?mode=detalje&id=119,http://kk.sites.itera.dk/apps/kk_legepladser_ny/index.asp?mode=detalje&id=119,ja
legeplads.107,POINT (12.612602996816893 55.651283659909744),12.612603,55.65128366,101,112,Legepladsen på Sundbyøster Plads,Smyrnavej 2,Amager Øst,Legeplads,0-14,Københavns kommune,"Legeplads, hvor handicappede børn kan lege med.",http://kk.sites.itera.dk/apps/kk_legepladser_ny/index.asp?mode=detalje&id=90,http://kk.sites.itera.dk/apps/kk_legepladser_ny/index.asp?mode=detalje&id=90,ja
legeplads.108,POINT (12.640703738835157 55.64723685556561),12.64070374,55.64723686,98,113,Legepladsen på Kastrup Fort,ved den sydlige bastion,Amager Øst,Legeplads,2/12/2015,Københavns kommune,"Legeplads, hvor handicappede børn kan lege med.",http://kk.sites.itera.dk/apps/kk_legepladser_ny/index.asp?mode=detalje&id=89,http://kk.sites.itera.dk/apps/kk_legepladser_ny/index.asp?mode=detalje&id=89,ja
legeplads.109,POINT (12.63706172488823 55.65782767438177),12.63706172,55.65782767,94,109,Legepladsen i Amager Strandpark,Amager Strandvej ved Kilometerbroen,Amager Øst,Legeplads,3/12/2015,Københavns kommune,Byens eneste legeplads direkte på stranden.,http://kk.sites.itera.dk/apps/kk_legepladser_ny/index.asp?mode=detalje&id=86,http://kk.sites.itera.dk/apps/kk_legepladser_ny/index.asp?mode=detalje&id=86,ja
legeplads.110,POINT (12.618278499991275 55.6623517669756),12.6182785,55.66235177,251,105,Legepladsen i Lergravsparken,Lergravsvej 16,Amager Øst,Bemandet udflugtslegeplads,0-16,Københavns kommune,Byens største kravlenet + soppebassin.,http://kk.sites.itera.dk/apps/kk_legepladser_ny/index.asp?mode=detalje&id=98,http://kk.sites.itera.dk/apps/kk_legepladser_ny/index.asp?mode=detalje&id=98,ja
legeplads.111,POINT (12.611247626004946 55.6614956222129),12.61124763,55.66149562,91,107,Legepladsen i Rødegårdsparken,ved Øresundsvej 39,Amager Øst,Legeplads,0-14,Københavns kommune,Byens eneste udendørs bordfodboldborde.,http://kk.sites.itera.dk/apps/kk_legepladser_ny/index.asp?mode=detalje&id=23,http://kk.sites.itera.dk/apps/kk_legepladser_ny/index.asp?mode=detalje&id=23,ja
legeplads.112,POINT (12.59640667247954 55.663441737418346),12.59640667,55.66344174,90,117,Legepladsen i Norgesgade,mellem Norgesgade 26-56,Amager Vest,Legeplads,0-14,Københavns kommune,"Flot plads, regnbuegynge og stort boldbur.",http://kk.sites.itera.dk/apps/kk_legepladser_ny/index.asp?mode=detalje&id=22,http://kk.sites.itera.dk/apps/kk_legepladser_ny/index.asp?mode=detalje&id=22,ja
legeplads.113,POINT (12.604840226257457 55.65813803377569),12.60484023,55.65813803,92,119,Legepladsen på Skotlands Plads,mellem Sundholmsvej 95-107,Amager Vest,Legeplads,0-14,Københavns kommune,"Stor, åben legeplads med boldbaner.",http://kk.sites.itera.dk/apps/kk_legepladser_ny/index.asp?mode=detalje&id=24,http://kk.sites.itera.dk/apps/kk_legepladser_ny/index.asp?mode=detalje&id=24,ja
legeplads.114,POINT (12.576864680844688 55.63380051913961),12.57686468,55.63380052,126,128,Legepladserne i Ørestad Bypark,Mellem C. F. Møllers Alle,Center Boulevard og Ørestads Boulevards,,,,,,,
legeplads.115,POINT (12.5737436238986 55.6156720484257),12.57374362,55.61567205,123,129,Himmelhøj Naturlegeplads,Otto Baches Alle/Granatvej,,,,,,,,
legeplads.116,POINT (12.601492038760414 55.65073143081918),12.60149204,55.65073143,122,123,Legepladsen i Sundbyvester Park,ved Irlandsvej,Amager Vest,Legeplads,0-16,Københavns kommune,"Fine, grønne omgivelser og nabo til Sundby Idrætspark",http://kk.sites.itera.dk/apps/kk_legepladser_ny/index.asp?mode=detalje&id=119,http://kk.sites.itera.dk/apps/kk_legepladser_ny/index.asp?mode=detalje&id=119,ja
legeplads.117,POINT (12.593726235581661 55.64186381737521),12.59372624,55.64186382,120,127,Legepladsen på Rødelandsvej,Vejlands Alle/Rødelandsvej,Amager Vest,Legeplads,3/10/2015,Københavns kommune,Hyggelig naturlegeplads.,http://kk.sites.itera.dk/apps/kk_legepladser_ny/index.asp?mode=detalje&id=130,http://kk.sites.itera.dk/apps/kk_legepladser_ny/index.asp?mode=detalje&id=130,ja
legeplads.118,POINT (12.573927146870522 55.66000377929776),12.57392715,55.66000378,116,118,Legepladsen på Tømmergrundens/Artillerivej,"Artellerivej, næsten ud for Axel Heides Gade",Amager Vest,Legeplads,3/8/2015,Københavns kommune,Ny naturlegeplads i 2011.,http://kk.sites.itera.dk/apps/kk_legepladser_ny/index.asp?mode=detalje&id=93,http://kk.sites.itera.dk/apps/kk_legepladser_ny/index.asp?mode=detalje&id=93,ja
legeplads.119,POINT (12.57875215690722 55.66874629213874),12.57875216,55.66874629,111,114,Legepladsen i Havneparken nord,Islands Brygge overfor Vestmannargade,Amager Vest,Legeplads,fra 6,Københavns kommune,Skaterpark med svalende havnebad lige ved siden af,http://kk.sites.itera.dk/apps/kk_legepladser_ny/index.asp?mode=detalje&id=123,http://kk.sites.itera.dk/apps/kk_legepladser_ny/index.asp?mode=detalje&id=123,ja
legeplads.120,POINT (12.574285929038934 55.66542977076966),12.57428593,55.66542977,105,115,Legepladsen i Havneparken syd,"Islands Brygge,  overfor Halfdansgade",Amager Vest,Legeplads,3/10/2015,Københavns kommune,Indhegnet til småbørn nær havnebad og beachvolley.,http://kk.sites.itera.dk/apps/kk_legepladser_ny/index.asp?mode=detalje&id=94,http://kk.sites.itera.dk/apps/kk_legepladser_ny/index.asp?mode=detalje&id=94,ja
legeplads.121,POINT (12.594328283908066 55.651146947238246),12.59432828,55.65114695,115,124,Legepladsen midt i Remiseparken ved højen,ved højen Remiseparken sydvest,Amager Vest,Legeplads,3/10/2015,Københavns kommune,Byens hemmeligste og længste tunnelrutsjebane.,http://kk.sites.itera.dk/apps/kk_legepladser_ny/index.asp?mode=detalje&id=133,http://kk.sites.itera.dk/apps/kk_legepladser_ny/index.asp?mode=detalje&id=133,ja
legeplads.122,POINT (12.579803285785873 55.66465750973628),12.57980329,55.66465751,264,116,Legepladsen i Gunløgsgade,Gunløgsgade 26,Amager Vest,Bemandet legeplads,0-16,Københavns kommune,Moderne legeplads med elektronisk bænk.,http://kk.sites.itera.dk/apps/kk_legepladser_ny/index.asp?mode=detalje&id=121,http://kk.sites.itera.dk/apps/kk_legepladser_ny/index.asp?mode=detalje&id=121,ja
legeplads.123,POINT (12.596741664767874 55.652465284844894),12.59674166,55.65246528,263,122,Byggelegepladsen i Remiseparken,Peder Lykkes vej 71-73 ved Peder Skrivers Sti,,,,,,,,
legeplads.124,POINT (12.59813308049459 55.65299220110696),12.59813308,55.6529922,262,121,Bondegårdslegepladsen i Remiseparken,Peder Lykkes vej 71-73,Amager Vest,Bemandet udflugtslegeplads,0-16,Københavns kommune,Byens eneste og meget elskede dyrelegeplads.,http://kk.sites.itera.dk/apps/kk_legepladser_ny/index.asp?mode=detalje&id=109,http://kk.sites.itera.dk/apps/kk_legepladser_ny/index.asp?mode=detalje&id=109,ja
legeplads.125,POINT (12.612274597740367 55.64641015542255),12.6122746,55.64641016,103,125,Legepladsen på Sundbyvester Plads,Sundbyvestervej/Gyldenlakvej,Amager Vest,Legeplads,3/10/2015,Københavns kommune,I 2012 ombygges legepladsen og bliver en plads for store børn.,http://kk.sites.itera.dk/apps/kk_legepladser_ny/index.asp?mode=detalje&id=92,http://kk.sites.itera.dk/apps/kk_legepladser_ny/index.asp?mode=detalje&id=92,ja
legeplads.126,POINT (12.613486228207583 55.64461284055033),12.61348623,55.64461284,96,126,Legepladsen på Georginevej,Georginevej/Gyldenlakvej,Amager Vest,Legeplads,3/10/2015,Københavns kommune,Hemmelig legehave tæt ved travle Amagerbrogade.,http://kk.sites.itera.dk/apps/kk_legepladser_ny/index.asp?mode=detalje&id=87,http://kk.sites.itera.dk/apps/kk_legepladser_ny/index.asp?mode=detalje&id=87,ja
legeplads.127,POINT (12.602196844557234 55.656237678047766),12.60219684,55.65623768,93,120,Legepladsen i Sætersdalparken,overfor Sætersdalgade 1-15,Amager Vest,Legeplads,3/8/2015,Københavns kommune,Junglesti og sjovt cykel- og rulleskøjteterræn.,http://kk.sites.itera.dk/apps/kk_legepladser_ny/index.asp?mode=detalje&id=85,http://kk.sites.itera.dk/apps/kk_legepladser_ny/index.asp?mode=detalje&id=85,ja